{
    "data":[
        {
            "province":"云南省",
            "city":"玉溪市",
            "district":"红塔区",
            "address":"云南省玉溪市红塔区北城街道大石板社区秧草塘村",
            "longitude":"102.51207",
            "latitude":"24.46442",
            "count":"2"
        },
        {
            "province":"云南省",
            "city":"玉溪市",
            "district":"红塔区",
            "address":"云南省玉溪市红塔区红塔大道50号华瑞小区",
            "longitude":"102.5463",
            "latitude":"24.34077",
            "count":"4"
        },
        {
            "province":"云南省",
            "city":"玉溪市",
            "district":"元江哈尼族彝族傣族自治县",
            "address":"云南省玉溪市元江哈尼族彝族傣族自治县玉景苑小区",
            "longitude":"102.002922",
            "latitude":"23.579105",
            "count":"1"
        },
        {
            "province":"云南省",
            "city":"昆明市",
            "district":"西山区",
            "address":"云南省昆明市西山区绿地大城天地商业区",
            "longitude":"102.702164",
            "latitude":"25.013317",
            "count":"2"
        },
        {
            "province":"云南省",
            "city":"昆明市",
            "district":"西山区",
            "address":"云南省昆明市西山区永昌街道绿地大城天地4B商业22-5栋",
            "longitude":"102.701859",
            "latitude":"25.013399",
            "count":"-1"
        },
        {
            "province":"云南省",
            "city":"昆明市",
            "district":"官渡区",
            "address":"云南省昆明市官渡区小板桥街道海伦国际小区",
            "longitude":"102.745262",
            "latitude":"24.9666",
            "count":"1"
        },
        {
            "province":"云南省",
            "city":"昆明市",
            "district":"官渡区",
            "address":"云南省昆明市官渡区矣六街道星体花园北区13栋1单元",
            "longitude":"102.76237",
            "latitude":"24.94033",
            "count":"-1"
        },
        {
            "province":"云南省",
            "city":"昆明市",
            "district":"官渡区",
            "address":"云南省昆明市官渡区昆船花园小区13栋2单元",
            "longitude":"102.796402",
            "latitude":"24.98933",
            "count":"-1"
        },
        {
            "province":"云南省",
            "city":"昆明市",
            "district":"盘龙区",
            "address":"云南省昆明市盘龙区金殿武家村",
            "longitude":"102.75205",
            "latitude":"25.11624",
            "count":"1"
        },
        {
            "province":"云南省",
            "city":"昆明市",
            "district":"盘龙区",
            "address":"云南省昆明市盘龙区联盟街道云锡花园2区西区1栋2单元",
            "longitude":"102.736549",
            "latitude":"25.071529",
            "count":"-1"
        },
        {
            "province":"云南省",
            "city":"昆明市",
            "district":"东川区",
            "address":"云南省昆明市东川区乌龙镇黄包谷地小组",
            "longitude":"103.079323",
            "latitude":"25.975559",
            "count":"-1"
        },
        {
            "province":"云南省",
            "city":"昆明市",
            "district":"五华区",
            "address":"云南省昆明市五华区红云街道江东耀龙康城8栋3单元",
            "longitude":"102.730247",
            "latitude":"25.098301",
            "count":"-1"
        },
        {
            "province":"云南省",
            "city":"昆明市",
            "district":"五华区",
            "address":"云南省昆明市五华区丰宁街道春晖小区颐达园3栋",
            "longitude":"102.676552",
            "latitude":"25.050993",
            "count":"-1"
        },
        {
            "province":"云南省",
            "city":"昆明市",
            "district":"寻甸县",
            "address":"云南省昆明市寻甸县塘子街道办事处小瓦匠村",
            "longitude":"103.28363",
            "latitude":"25.476999",
            "count":"-1"
        },
        {
            "province":"云南省",
            "city":"昆明市",
            "district":"安宁市",
            "address":"云南省昆明市安宁市金方街道恒大金碧天下博雅苑25栋1单元",
            "longitude":"102.562363",
            "latitude":"24.889889",
            "count":"-1"
        },
        {
            "province":"云南省",
            "city":"保山市",
            "district":"腾冲市",
            "address":"云南省保山市腾冲市镇安镇",
            "longitude":98.825267,
            "latitude":24.69588,
            "count":"1"
        },
        {
            "province":"云南省",
            "city":"德宏傣族景颇族自治州",
            "district":"瑞丽市",
            "address":"云南省德宏傣族景颇族自治州瑞丽市五缘玉城小区",
            "longitude":"97.84623",
            "latitude":"24.024139",
            "count":"1"
        },
        {
            "province":"云南省",
            "city":"西双版纳傣族自治州",
            "district":"景洪市",
            "address":"云南省西双版纳傣族自治州景洪市 景洪农场三分场",
            "longitude":"100.753408",
            "latitude":"21.985604",
            "count":"1"
        },
        {
            "province":"云南省",
            "city":"西双版纳傣族自治州",
            "district":"景洪市",
            "address":"云南省西双版纳傣族自治州景洪市曼哈乡曼伞囡村",
            "longitude":"101.047478",
            "latitude":"21.759501",
            "count":"1"
        },
        {
            "province":"吉林省",
            "city":"吉林市",
            "district":"丰满区",
            "address":"吉林省吉林市丰满区中海紫御江城",
            "longitude":"126.567146",
            "latitude":"43.83226",
            "count":"1"
        },
        {
            "province":"吉林省",
            "city":"吉林市",
            "district":"昌邑区",
            "address":"吉林省吉林市昌邑区吉炭小区",
            "longitude":"126.581863",
            "latitude":"43.87487",
            "count":"1"
        },
        {
            "province":"吉林省",
            "city":"长春市",
            "district":"净月区",
            "address":"吉林省长春市净月区万科城",
            "longitude":"125.386841",
            "latitude":"43.799",
            "count":"3"
        },
        {
            "province":"吉林省",
            "city":"长春市",
            "district":"净月区",
            "address":"吉林省长春市净月区博学路东城国际花园小区",
            "longitude":"125.414871",
            "latitude":"43.819729",
            "count":"1"
        },
        {
            "province":"吉林省",
            "city":"长春市",
            "district":"净月区",
            "address":"吉林省长春市净月区净月街道财苑家园",
            "longitude":"125.446503",
            "latitude":"43.82782",
            "count":"2"
        },
        {
            "province":"吉林省",
            "city":"长春市",
            "district":"朝阳区",
            "address":"吉林省长春市朝阳区崇智路694号",
            "longitude":"125.31404",
            "latitude":"43.89262",
            "count":"5"
        },
        {
            "province":"吉林省",
            "city":"长春市",
            "district":"绿园区",
            "address":"吉林省长春市绿园区西城国际公馆",
            "longitude":"125.268951",
            "latitude":"43.898201",
            "count":"1"
        },
        {
            "province":"吉林省",
            "city":"长春市",
            "district":"绿园区",
            "address":"吉林省长春市绿园区长客花园",
            "longitude":"125.289803",
            "latitude":"43.909149",
            "count":"1"
        },
        {
            "province":"吉林省",
            "city":"长春市",
            "district":"高新区",
            "address":"吉林省长春市高新区中海兰庭小区",
            "longitude":"125.259201",
            "latitude":"43.783199",
            "count":"1"
        },
        {
            "province":"吉林省",
            "city":"长春市",
            "district":"高新区",
            "address":"吉林省长春市高新区北湾新城",
            "longitude":"125.391365",
            "latitude":"43.969044",
            "count":"1"
        },
        {
            "province":"吉林省",
            "city":"长春市",
            "district":"高新区",
            "address":"吉林省长春市高新区恒大绿洲",
            "longitude":"125.259071",
            "latitude":"43.774448",
            "count":"5"
        },
        {
            "province":"吉林省",
            "city":"长春市",
            "district":"高新区",
            "address":"吉林省长春市高新区飞跃经典小区",
            "longitude":"125.241211",
            "latitude":"43.832779",
            "count":"1"
        },
        {
            "province":"吉林省",
            "city":"长春市",
            "district":"高新区",
            "address":"吉林省长春市高新区吉大南校家属楼",
            "longitude":"125.27935",
            "latitude":"43.828747",
            "count":"1"
        },
        {
            "province":"吉林省",
            "city":"长春市",
            "district":"九台区",
            "address":"吉林省长春市九台区龙凤二期",
            "longitude":"125.686569",
            "latitude":"44.224972",
            "count":"1"
        },
        {
            "province":"吉林省",
            "city":"长春市",
            "district":"九台区",
            "address":"吉林省长春市九台区工商一条街铁路家属楼",
            "longitude":"125.83828",
            "latitude":"44.150131",
            "count":"1"
        },
        {
            "province":"吉林省",
            "city":"长春市",
            "district":"二道区",
            "address":"吉林省长春市二道区力旺康城小区",
            "longitude":"125.370705",
            "latitude":"43.945663",
            "count":"1"
        },
        {
            "province":"吉林省",
            "city":"长春市",
            "district":"二道区",
            "address":"吉林省长春市二道区天富北苑",
            "longitude":"125.37458",
            "latitude":"43.90736",
            "count":"1"
        },
        {
            "province":"吉林省",
            "city":"长春市",
            "district":"宽城区",
            "address":"吉林省长春市宽城区北十条荣旺天下",
            "longitude":"125.35038",
            "latitude":"43.917198",
            "count":"1"
        },
        {
            "province":"吉林省",
            "city":"长春市",
            "district":"宽城区",
            "address":"吉林省长春市宽城区金都小镇",
            "longitude":"125.286697",
            "latitude":"43.965321",
            "count":"1"
        },
        {
            "province":"吉林省",
            "city":"长春市",
            "district":"经开区",
            "address":"吉林省长春市经开区首地首城",
            "longitude":"125.411354",
            "latitude":"43.840981",
            "count":"2"
        },
        {
            "province":"天津市",
            "city":"天津市",
            "district":"宁河区",
            "address":"天津市宁河区芦台镇王北村",
            "longitude":"117.771988",
            "latitude":"39.358971",
            "count":"1"
        },
        {
            "province":"天津市",
            "city":"天津市",
            "district":"宁河区",
            "address":"天津市宁河区芦台镇运河家园",
            "longitude":"117.802422",
            "latitude":"39.351799",
            "count":"3"
        },
        {
            "province":"天津市",
            "city":"天津市",
            "district":"宝坻区",
            "address":"天津市宝坻区宝平街道华苑东区",
            "longitude":"117.30587",
            "latitude":"39.709171",
            "count":"1"
        },
        {
            "province":"天津市",
            "city":"天津市",
            "district":"宝坻区",
            "address":"天津市宝坻区宝平街道宝平景苑东区",
            "longitude":"117.295311",
            "latitude":"39.70789",
            "count":"1"
        },
        {
            "province":"天津市",
            "city":"天津市",
            "district":"宝坻区",
            "address":"天津市宝坻区宝平街道宝平景苑西区",
            "longitude":"117.29137",
            "latitude":"39.70902",
            "count":"1"
        },
        {
            "province":"天津市",
            "city":"天津市",
            "district":"宝坻区",
            "address":"天津市宝坻区宝平街道河景馨园小区",
            "longitude":"117.289268",
            "latitude":"39.702579",
            "count":"3"
        },
        {
            "province":"天津市",
            "city":"天津市",
            "district":"宝坻区",
            "address":"天津市宝坻区朝霞街道开元新居小区",
            "longitude":117.299005,
            "latitude":39.733511,
            "count":"1"
        },
        {
            "province":"天津市",
            "city":"天津市",
            "district":"宝坻区",
            "address":"天津市宝坻区海滨街道宝鑫景苑小区",
            "longitude":"117.321983",
            "latitude":"39.73172",
            "count":"2"
        },
        {
            "province":"天津市",
            "city":"天津市",
            "district":"宝坻区",
            "address":"天津市宝坻区海滨街道御景华城小区",
            "longitude":"117.350296",
            "latitude":"39.738712",
            "count":"2"
        },
        {
            "province":"天津市",
            "city":"天津市",
            "district":"宝坻区",
            "address":"天津市宝坻区牛道口镇焦山寺村",
            "longitude":"117.290787",
            "latitude":"39.779079",
            "count":"1"
        },
        {
            "province":"天津市",
            "city":"天津市",
            "district":"宝坻区",
            "address":"天津市宝坻区钰华街道凯瑞国际小区",
            "longitude":"117.336433",
            "latitude":"39.722679",
            "count":"2"
        },
        {
            "province":"天津市",
            "city":"天津市",
            "district":"宝坻区",
            "address":"天津市宝坻区大口屯镇古庄村",
            "longitude":"117.258926",
            "latitude":"39.592751",
            "count":"1"
        },
        {
            "province":"天津市",
            "city":"天津市",
            "district":"宝坻区",
            "address":"天津市宝坻区大钟庄镇大钟庄村",
            "longitude":"117.577377",
            "latitude":"39.687401",
            "count":"2"
        },
        {
            "province":"天津市",
            "city":"天津市",
            "district":"宝坻区",
            "address":"天津市宝坻区口东镇前齐各庄村",
            "longitude":"117.405441",
            "latitude":"39.669762",
            "count":"2"
        },
        {
            "province":"天津市",
            "city":"天津市",
            "district":"宝坻区",
            "address":"天津市宝坻区宝平街道瑞景花园小区",
            "longitude":"117.311768",
            "latitude":"39.72253",
            "count":"1"
        },
        {
            "province":"天津市",
            "city":"天津市",
            "district":"宝坻区",
            "address":"天津市宝坻区朝霞街道状元城小区",
            "longitude":117.287721,
            "latitude":39.735738,
            "count":"1"
        },
        {
            "province":"天津市",
            "city":"天津市",
            "district":"宝坻区",
            "address":"天津市宝坻区林亭口镇窝贝厂村",
            "longitude":"117.533508",
            "latitude":"39.603519",
            "count":"1"
        },
        {
            "province":"天津市",
            "city":"天津市",
            "district":"宝坻区",
            "address":"天津市宝坻区钰华街道金玉四园小区",
            "longitude":117.319656,
            "latitude":39.71131,
            "count":"1"
        },
        {
            "province":"天津市",
            "city":"天津市",
            "district":"宝坻区",
            "address":"天津市宝坻区宝平街道宝境檀香小区",
            "longitude":"117.276573",
            "latitude":"39.6931",
            "count":"1"
        },
        {
            "province":"天津市",
            "city":"天津市",
            "district":"宝坻区",
            "address":"天津市宝坻区牛道口镇沟头村",
            "longitude":"117.207428",
            "latitude":"39.814442",
            "count":"1"
        },
        {
            "province":"天津市",
            "city":"天津市",
            "district":"宝坻区",
            "address":"天津市宝坻区宝平街道凯旋家园小区",
            "longitude":"117.297768",
            "latitude":"39.695438",
            "count":"1"
        },
        {
            "province":"天津市",
            "city":"天津市",
            "district":"宝坻区",
            "address":"天津市宝坻区宝平街道蝶恋新园小区",
            "longitude":"117.284096",
            "latitude":"39.712849",
            "count":"1"
        },
        {
            "province":"天津市",
            "city":"天津市",
            "district":"宝坻区",
            "address":"天津市宝坻区钰华街道顺驰小区",
            "longitude":"117.330261",
            "latitude":"39.715565",
            "count":"1"
        },
        {
            "province":"天津市",
            "city":"天津市",
            "district":"宝坻区",
            "address":"天津市宝坻区史各庄镇陈甫村",
            "longitude":"117.244827",
            "latitude":"39.729778",
            "count":"1"
        },
        {
            "province":"天津市",
            "city":"天津市",
            "district":"宝坻区",
            "address":"天津市宝坻区宝平街道逸城雅园小区",
            "longitude":"117.30162",
            "latitude":"39.70504",
            "count":"1"
        },
        {
            "province":"天津市",
            "city":"天津市",
            "district":"宝坻区",
            "address":"天津市宝坻区海滨街道蓝水湾小区",
            "longitude":"117.299263",
            "latitude":"39.739964",
            "count":"1"
        },
        {
            "province":"天津市",
            "city":"天津市",
            "district":"滨海新区",
            "address":"天津市滨海新区中新生态城",
            "longitude":"117.737556",
            "latitude":"39.116772",
            "count":"1"
        },
        {
            "province":"天津市",
            "city":"天津市",
            "district":"滨海新区",
            "address":"天津市滨海新区万通上北新新家园",
            "longitude":"117.64769",
            "latitude":"39.06181",
            "count":"1"
        },
        {
            "province":"天津市",
            "city":"天津市",
            "district":"东丽区",
            "address":"天津市东丽区揽湖苑别墅",
            "longitude":"117.499031",
            "latitude":"39.178452",
            "count":"3"
        },
        {
            "province":"天津市",
            "city":"天津市",
            "district":"东丽区",
            "address":"天津市东丽区华明街道坤园",
            "longitude":"117.379646",
            "latitude":"39.178581",
            "count":"1"
        },
        {
            "province":"天津市",
            "city":"天津市",
            "district":"西青区",
            "address":"天津市西青区杨柳青镇",
            "longitude":"117.014046",
            "latitude":"39.128487",
            "count":"2"
        },
        {
            "province":"天津市",
            "city":"天津市",
            "district":"西青区",
            "address":"天津市西青区中北镇溪秀苑小区",
            "longitude":"117.093208",
            "latitude":"39.124432",
            "count":"1"
        },
        {
            "province":"天津市",
            "city":"天津市",
            "district":"津南区",
            "address":"天津市津南区双港镇",
            "longitude":"117.318703",
            "latitude":"39.04274",
            "count":"1"
        },
        {
            "province":"天津市",
            "city":"天津市",
            "district":"北辰区",
            "address":"天津市北辰区普东街强宜里小区",
            "longitude":"117.204941",
            "latitude":"39.190418",
            "count":"1"
        },
        {
            "province":"安徽省",
            "city":"滁州市",
            "district":"琅琊区",
            "address":"安徽省滁州市琅琊区清流街道泰鑫现代城东区",
            "longitude":"118.317131",
            "latitude":"32.29985",
            "count":"1"
        },
        {
            "province":"安徽省",
            "city":"滁州市",
            "district":"凤阳县",
            "address":"安徽省滁州市凤阳县官塘镇",
            "longitude":"117.219681",
            "latitude":"32.68367",
            "count":"5"
        },
        {
            "province":"安徽省",
            "city":"滁州市",
            "district":"天长市",
            "address":"安徽省滁州市天长市天长街道",
            "longitude":"119.012642",
            "latitude":"32.679459",
            "count":"1"
        },
        {
            "province":"安徽省",
            "city":"滁州市",
            "district":"天长市",
            "address":"安徽省滁州市天长市汊涧镇",
            "longitude":"118.775574",
            "latitude":"32.666061",
            "count":"1"
        },
        {
            "province":"安徽省",
            "city":"滁州市",
            "district":"明光市",
            "address":"安徽省滁州市明光市古沛镇",
            "longitude":"118.004349",
            "latitude":"32.990391",
            "count":"1"
        },
        {
            "province":"安徽省",
            "city":"马鞍山市",
            "district":"和县",
            "address":"安徽省马鞍山市和县功桥镇",
            "longitude":"118.19442",
            "latitude":"31.571051",
            "count":"2"
        },
        {
            "province":"安徽省",
            "city":"马鞍山市",
            "district":"和县",
            "address":"安徽省马鞍山市和县白桥镇",
            "longitude":"118.308609",
            "latitude":"31.528959",
            "count":"10"
        },
        {
            "province":"安徽省",
            "city":"马鞍山市",
            "district":"和县",
            "address":"安徽省马鞍山市和县西埠镇",
            "longitude":"118.291496",
            "latitude":"31.76877",
            "count":"1"
        },
        {
            "province":"安徽省",
            "city":"马鞍山市",
            "district":"和县",
            "address":"安徽省马鞍山市和县香泉镇",
            "longitude":"118.325851",
            "latitude":"31.87038",
            "count":"1"
        },
        {
            "province":"安徽省",
            "city":"马鞍山市",
            "district":"当涂县",
            "address":"安徽省马鞍山市当涂县黄池镇",
            "longitude":"118.606033",
            "latitude":"31.307631",
            "count":"1"
        },
        {
            "province":"安徽省",
            "city":"马鞍山市",
            "district":"雨山区",
            "address":"安徽省马鞍山市雨山区泰和天成",
            "longitude":"118.512253",
            "latitude":"31.655371",
            "count":"3"
        },
        {
            "province":"安徽省",
            "city":"马鞍山市",
            "district":"雨山区",
            "address":"安徽省马鞍山市雨山区红旗花园",
            "longitude":"118.494743",
            "latitude":"31.696871",
            "count":"3"
        },
        {
            "province":"安徽省",
            "city":"马鞍山市",
            "district":"雨山区",
            "address":"安徽省马鞍山市雨山区阳光城",
            "longitude":"118.593468",
            "latitude":"31.662146",
            "count":"1"
        },
        {
            "province":"安徽省",
            "city":"马鞍山市",
            "district":"花山区",
            "address":"安徽省马鞍山市花山区同济花园",
            "longitude":"118.515831",
            "latitude":"31.706181",
            "count":"1"
        },
        {
            "province":"安徽省",
            "city":"亳州市",
            "district":"利辛县",
            "address":"安徽省亳州市利辛县城关镇五一路",
            "longitude":"116.207062",
            "latitude":"33.141781",
            "count":"-1"
        },
        {
            "province":"安徽省",
            "city":"亳州市",
            "district":"利辛县",
            "address":"安徽省亳州市利辛县城关镇文物所家属院",
            "longitude":116.208334,
            "latitude":33.144983,
            "count":"1"
        },
        {
            "province":"安徽省",
            "city":"亳州市",
            "district":"利辛县",
            "address":"安徽省亳州市利辛县城关镇港口新村老供销社家属院",
            "longitude":"116.201637",
            "latitude":"33.139309",
            "count":"1"
        },
        {
            "province":"安徽省",
            "city":"亳州市",
            "district":"利辛县",
            "address":"安徽省亳州市利辛县城关镇顺河村姚庄",
            "longitude":116.138678,
            "latitude":33.132344,
            "count":"-1"
        },
        {
            "province":"安徽省",
            "city":"亳州市",
            "district":"利辛县",
            "address":"安徽省亳州市利辛县城关镇黄桥社区",
            "longitude":"116.200844",
            "latitude":"33.149441",
            "count":"-1"
        },
        {
            "province":"安徽省",
            "city":"亳州市",
            "district":"利辛县",
            "address":"安徽省亳州市利辛县潘楼镇张大庄村张大庄",
            "longitude":"116.32135",
            "latitude":"33.25433",
            "count":"-1"
        },
        {
            "province":"安徽省",
            "city":"亳州市",
            "district":"利辛县",
            "address":"安徽省亳州市利辛县王市镇刘沈村刘寨",
            "longitude":116.097873,
            "latitude":33.137622,
            "count":"-1"
        },
        {
            "province":"安徽省",
            "city":"亳州市",
            "district":"利辛县",
            "address":"安徽省亳州市利辛县纪王场乡纪竹园庄",
            "longitude":116.131112,
            "latitude":33.341079,
            "count":"-1"
        },
        {
            "province":"安徽省",
            "city":"亳州市",
            "district":"利辛县",
            "address":"安徽省亳州市利辛县胡集镇李圩村腰西庄",
            "longitude":116.240559,
            "latitude":32.956466,
            "count":"-1"
        },
        {
            "province":"安徽省",
            "city":"亳州市",
            "district":"利辛县",
            "address":"安徽省亳州市利辛县西潘楼镇张集村东刘",
            "longitude":116.129055,
            "latitude":33.214931,
            "count":"-1"
        },
        {
            "province":"安徽省",
            "city":"亳州市",
            "district":"利辛县",
            "address":"安徽省亳州市利辛县阚疃镇人民南路",
            "longitude":116.316764,
            "latitude":33.010126,
            "count":"-1"
        },
        {
            "province":"安徽省",
            "city":"亳州市",
            "district":"利辛县",
            "address":"安徽省亳州市利辛县城关镇金龙国际新城",
            "longitude":"116.212128",
            "latitude":"33.163021",
            "count":"1"
        },
        {
            "province":"安徽省",
            "city":"亳州市",
            "district":"利辛县",
            "address":"安徽省亳州市利辛县城关镇中央名城小区",
            "longitude":"116.199089",
            "latitude":"33.144428",
            "count":"1"
        },
        {
            "province":"安徽省",
            "city":"亳州市",
            "district":"利辛县",
            "address":"安徽省亳州市利辛县城关镇复兴社区利东东区",
            "longitude":"116.206863",
            "latitude":"33.122826",
            "count":"2"
        },
        {
            "province":"安徽省",
            "city":"亳州市",
            "district":"利辛县",
            "address":"安徽省亳州市利辛县城关镇春店社区胜利村",
            "longitude":116.231678,
            "latitude":33.156811,
            "count":"1"
        },
        {
            "province":"安徽省",
            "city":"亳州市",
            "district":"利辛县",
            "address":"安徽省亳州市利辛县城关镇前进路英伦华帝小区",
            "longitude":"116.191643",
            "latitude":"33.145378",
            "count":"2"
        },
        {
            "province":"安徽省",
            "city":"亳州市",
            "district":"利辛县",
            "address":"安徽省亳州市利辛县老二中对面黄寨社区",
            "longitude":"116.143272",
            "latitude":"33.140629",
            "count":"1"
        },
        {
            "province":"安徽省",
            "city":"亳州市",
            "district":"利辛县",
            "address":"安徽省亳州市利辛县西潘楼镇东潘楼村",
            "longitude":"116.140732",
            "latitude":"33.197868",
            "count":"1"
        },
        {
            "province":"安徽省",
            "city":"亳州市",
            "district":"利辛县",
            "address":"安徽省亳州市利辛县城关镇闫郢村董老寨",
            "longitude":"116.212502",
            "latitude":"33.176289",
            "count":"1"
        },
        {
            "province":"安徽省",
            "city":"亳州市",
            "district":"涡阳县",
            "address":"安徽省亳州市涡阳县城关镇街道北环中路",
            "longitude":"116.217339",
            "latitude":"33.516613",
            "count":"-1"
        },
        {
            "province":"安徽省",
            "city":"亳州市",
            "district":"涡阳县",
            "address":"安徽省亳州市涡阳县城关镇街道医苑新村",
            "longitude":"116.206589",
            "latitude":"33.490322",
            "count":"-1"
        },
        {
            "province":"安徽省",
            "city":"亳州市",
            "district":"涡阳县",
            "address":"安徽省亳州市涡阳县新兴镇付庄行政村付庄",
            "longitude":116.406102,
            "latitude":33.654964,
            "count":"-1"
        },
        {
            "province":"安徽省",
            "city":"亳州市",
            "district":"涡阳县",
            "address":"安徽省亳州市涡阳县新兴镇左楼付庄",
            "longitude":116.406102,
            "latitude":33.654964,
            "count":"-1"
        },
        {
            "province":"安徽省",
            "city":"亳州市",
            "district":"涡阳县",
            "address":"安徽省亳州市涡阳县星园街道桂语城栖",
            "longitude":"116.190903",
            "latitude":"33.47234",
            "count":"-1"
        },
        {
            "province":"安徽省",
            "city":"亳州市",
            "district":"涡阳县",
            "address":"安徽省亳州市涡阳县花沟镇孙小桥行政村李楼",
            "longitude":116.127946,
            "latitude":33.499045,
            "count":"-1"
        },
        {
            "province":"安徽省",
            "city":"亳州市",
            "district":"涡阳县",
            "address":"安徽省亳州市涡阳县马店集镇李庄行政村李庄",
            "longitude":116.268859,
            "latitude":33.662309,
            "count":"-1"
        },
        {
            "province":"安徽省",
            "city":"亳州市",
            "district":"涡阳县",
            "address":"安徽省亳州市涡阳县城关街道紫光大道与育英路交口向南",
            "longitude":"116.20342",
            "latitude":"33.49568",
            "count":"2"
        },
        {
            "province":"安徽省",
            "city":"亳州市",
            "district":"涡阳县",
            "address":"安徽省亳州市涡阳县城关镇乐行家园",
            "longitude":"116.214256",
            "latitude":"33.506474",
            "count":"1"
        },
        {
            "province":"安徽省",
            "city":"亳州市",
            "district":"涡阳县",
            "address":"安徽省亳州市涡阳县新兴镇付庄行政村",
            "longitude":116.280603,
            "latitude":33.756773,
            "count":"1"
        },
        {
            "province":"安徽省",
            "city":"亳州市",
            "district":"涡阳县",
            "address":"安徽省亳州市涡阳县花沟镇孙小桥行政村",
            "longitude":116.125285,
            "latitude":33.493899,
            "count":"1"
        },
        {
            "province":"安徽省",
            "city":"亳州市",
            "district":"涡阳县",
            "address":"安徽省亳州市涡阳县新兴镇左楼村",
            "longitude":"116.238281",
            "latitude":"33.67923",
            "count":"1"
        },
        {
            "province":"安徽省",
            "city":"亳州市",
            "district":"涡阳县",
            "address":"安徽省亳州市涡阳县新汽车站对面路北小区幸福港湾",
            "longitude":116.185939,
            "latitude":33.494288,
            "count":"1"
        },
        {
            "province":"安徽省",
            "city":"亳州市",
            "district":"涡阳县",
            "address":"安徽省亳州市涡阳县城关街道巨人印象小区",
            "longitude":"116.199715",
            "latitude":"33.489044",
            "count":"5"
        },
        {
            "province":"安徽省",
            "city":"亳州市",
            "district":"涡阳县",
            "address":"安徽省亳州市涡阳县新兴镇左楼行政村大围子自然村",
            "longitude":"116.233788",
            "latitude":"33.595928",
            "count":"1"
        },
        {
            "province":"安徽省",
            "city":"亳州市",
            "district":"涡阳县",
            "address":"安徽省亳州市涡阳县花沟镇狄马村",
            "longitude":"116.098152",
            "latitude":"33.493679",
            "count":"1"
        },
        {
            "province":"安徽省",
            "city":"亳州市",
            "district":"蒙城县",
            "address":"安徽省亳州市蒙城县三义镇义兴街",
            "longitude":"116.475677",
            "latitude":"33.099979",
            "count":"-1"
        },
        {
            "province":"安徽省",
            "city":"亳州市",
            "district":"蒙城县",
            "address":"安徽省亳州市蒙城县乐土镇双桥村褚尹庄",
            "longitude":"116.616692",
            "latitude":"33.07975",
            "count":"-1"
        },
        {
            "province":"安徽省",
            "city":"亳州市",
            "district":"蒙城县",
            "address":"安徽省亳州市蒙城县乐土镇柳林街",
            "longitude":"116.65197",
            "latitude":"33.107079",
            "count":"-1"
        },
        {
            "province":"安徽省",
            "city":"亳州市",
            "district":"蒙城县",
            "address":"安徽省亳州市蒙城县城关街道金天地商业街",
            "longitude":"116.556511",
            "latitude":"33.256069",
            "count":"-1"
        },
        {
            "province":"安徽省",
            "city":"亳州市",
            "district":"蒙城县",
            "address":"安徽省亳州市蒙城县庄周街道玖隆国际C区",
            "longitude":"116.56064",
            "latitude":"33.24014",
            "count":"-1"
        },
        {
            "province":"安徽省",
            "city":"亳州市",
            "district":"蒙城县",
            "address":"安徽省亳州市蒙城县许疃镇赵集村东孙庄",
            "longitude":"116.785172",
            "latitude":"33.401711",
            "count":"-1"
        },
        {
            "province":"安徽省",
            "city":"亳州市",
            "district":"蒙城县",
            "address":"安徽省亳州市蒙城县许疃镇闫集村后钱庄",
            "longitude":116.666949,
            "latitude":33.396513,
            "count":"-1"
        },
        {
            "province":"安徽省",
            "city":"亳州市",
            "district":"蒙城县",
            "address":"安徽省亳州市蒙城县庄周街道桂堰小区",
            "longitude":"116.594292",
            "latitude":"33.242199",
            "count":"1"
        },
        {
            "province":"安徽省",
            "city":"亳州市",
            "district":"谯城区",
            "address":"安徽省亳州市谯城区亿丰御景小区",
            "longitude":"115.786133",
            "latitude":"33.838718",
            "count":"-1"
        },
        {
            "province":"安徽省",
            "city":"亳州市",
            "district":"谯城区",
            "address":"安徽省亳州市谯城区十八里镇候桥村赵老家",
            "longitude":"115.627296",
            "latitude":"33.78054",
            "count":"-1"
        },
        {
            "province":"安徽省",
            "city":"亳州市",
            "district":"谯城区",
            "address":"安徽省亳州市谯城区御花园小区",
            "longitude":"115.76889",
            "latitude":"33.857979",
            "count":"-1"
        },
        {
            "province":"安徽省",
            "city":"亳州市",
            "district":"谯城区",
            "address":"安徽省亳州市谯城区薛阁办事处白依路包园新村",
            "longitude":115.789839,
            "latitude":33.849411,
            "count":"-1"
        },
        {
            "province":"安徽省",
            "city":"亳州市",
            "district":"谯城区",
            "address":"安徽省亳州市谯城区颜集镇曹寺行政村东张庄",
            "longitude":"115.995644",
            "latitude":"33.95237",
            "count":"-1"
        },
        {
            "province":"安徽省",
            "city":"亳州市",
            "district":"谯城区",
            "address":"安徽省亳州市谯城区华佗镇程屯村",
            "longitude":"115.767792",
            "latitude":"33.930531",
            "count":"1"
        },
        {
            "province":"安徽省",
            "city":"亳州市",
            "district":"谯城区",
            "address":"安徽省亳州市谯城区华佗镇程屯村小王庄",
            "longitude":"115.721512",
            "latitude":"33.94286",
            "count":"1"
        },
        {
            "province":"安徽省",
            "city":"亳州市",
            "district":"高新区",
            "address":"安徽省亳州市高新区建投世纪城",
            "longitude":"115.761673",
            "latitude":"33.80518",
            "count":"-1"
        },
        {
            "province":"安徽省",
            "city":"亳州市",
            "district":"高新区",
            "address":"安徽省亳州市高新区翡翠庄园",
            "longitude":"115.767487",
            "latitude":"33.81929",
            "count":"-1"
        },
        {
            "province":"安徽省",
            "city":"亳州市",
            "district":"高新区",
            "address":"安徽省亳州市高新区豪泽丽景小区",
            "longitude":"115.771439",
            "latitude":"33.82769",
            "count":"-1"
        },
        {
            "province":"安徽省",
            "city":"合肥市",
            "district":"包河区",
            "address":"安徽省合肥市包河区宝利丰广场",
            "longitude":"117.286774",
            "latitude":"31.83544",
            "count":"-1"
        },
        {
            "province":"安徽省",
            "city":"合肥市",
            "district":"包河区",
            "address":"安徽省合肥市包河区曙宏南苑",
            "longitude":"117.275787",
            "latitude":"31.82452",
            "count":"-1"
        },
        {
            "province":"安徽省",
            "city":"合肥市",
            "district":"包河区",
            "address":"安徽省合肥市包河区滨湖明珠西区",
            "longitude":"117.28219",
            "latitude":"31.73312",
            "count":"-1"
        },
        {
            "province":"安徽省",
            "city":"合肥市",
            "district":"包河区",
            "address":"安徽省合肥市包河区琼林苑小区",
            "longitude":"117.289932",
            "latitude":"31.748102",
            "count":"-1"
        },
        {
            "province":"安徽省",
            "city":"合肥市",
            "district":"包河区",
            "address":"安徽省合肥市包河区豪门金地小区",
            "longitude":"117.280571",
            "latitude":"31.706409",
            "count":"-1"
        },
        {
            "province":"安徽省",
            "city":"合肥市",
            "district":"包河区",
            "address":"安徽省合肥市包河区金湾嘉园",
            "longitude":"117.306091",
            "latitude":"31.85006",
            "count":"-1"
        },
        {
            "province":"安徽省",
            "city":"合肥市",
            "district":"包河区",
            "address":"安徽省合肥市包河区兴丰苑小区",
            "longitude":"117.293159",
            "latitude":"31.850479",
            "count":"-1"
        },
        {
            "province":"安徽省",
            "city":"合肥市",
            "district":"巢湖市",
            "address":"安徽省合肥市巢湖市凤凰山街道城市之光C区",
            "longitude":"117.87793",
            "latitude":"31.61656",
            "count":"-1"
        },
        {
            "province":"安徽省",
            "city":"合肥市",
            "district":"巢湖市",
            "address":"安徽省合肥市巢湖市槐林镇武山居委会",
            "longitude":117.610226,
            "latitude":31.428776,
            "count":"-1"
        },
        {
            "province":"安徽省",
            "city":"合肥市",
            "district":"庐江县",
            "address":"安徽省合肥市庐江县冶父山镇冶父山社区",
            "longitude":"117.333885",
            "latitude":"31.269855",
            "count":"-1"
        },
        {
            "province":"安徽省",
            "city":"合肥市",
            "district":"庐江县",
            "address":"安徽省合肥市庐江县同大镇施丰村",
            "longitude":"117.29203",
            "latitude":"31.476749",
            "count":"-1"
        },
        {
            "province":"安徽省",
            "city":"合肥市",
            "district":"庐江县",
            "address":"安徽省合肥市庐江县庐城镇翠绿园",
            "longitude":"117.294563",
            "latitude":"31.257862",
            "count":"-1"
        },
        {
            "province":"安徽省",
            "city":"合肥市",
            "district":"庐江县",
            "address":"安徽省合肥市庐江县柯坦镇城池村",
            "longitude":"117.185913",
            "latitude":"31.189911",
            "count":"-1"
        },
        {
            "province":"安徽省",
            "city":"合肥市",
            "district":"庐江县",
            "address":"安徽省合肥市庐江县矾山镇新中村",
            "longitude":"117.432388",
            "latitude":"31.06563",
            "count":"-1"
        },
        {
            "province":"安徽省",
            "city":"合肥市",
            "district":"庐江县",
            "address":"安徽省合肥市庐江县罗河镇吉桥村",
            "longitude":"117.237877",
            "latitude":"31.06312",
            "count":"-1"
        },
        {
            "province":"安徽省",
            "city":"合肥市",
            "district":"庐江县",
            "address":"安徽省合肥市庐江县罗河镇鲍店村",
            "longitude":"117.392632",
            "latitude":"30.982321",
            "count":"-1"
        },
        {
            "province":"安徽省",
            "city":"合肥市",
            "district":"庐江县",
            "address":"安徽省合肥市庐江县金牛镇铺岗村",
            "longitude":"117.169968",
            "latitude":"31.376863",
            "count":"-1"
        },
        {
            "province":"安徽省",
            "city":"合肥市",
            "district":"庐阳区",
            "address":"安徽省合肥市庐阳区古城新村",
            "longitude":"117.25576",
            "latitude":"31.875839",
            "count":"-1"
        },
        {
            "province":"安徽省",
            "city":"合肥市",
            "district":"庐阳区",
            "address":"安徽省合肥市庐阳区探矿厂宿舍",
            "longitude":"117.286018",
            "latitude":"31.905523",
            "count":"-1"
        },
        {
            "province":"安徽省",
            "city":"合肥市",
            "district":"庐阳区",
            "address":"安徽省合肥市庐阳区杏林花园南区",
            "longitude":"117.2873",
            "latitude":"31.89435",
            "count":"-1"
        },
        {
            "province":"安徽省",
            "city":"合肥市",
            "district":"庐阳区",
            "address":"安徽省合肥市庐阳区柏景湾青云轩",
            "longitude":"117.271576",
            "latitude":"31.877001",
            "count":"-1"
        },
        {
            "province":"安徽省",
            "city":"合肥市",
            "district":"庐阳区",
            "address":"安徽省合肥市庐阳区海亮红玺台小区",
            "longitude":"117.266151",
            "latitude":"31.89242",
            "count":"-1"
        },
        {
            "province":"安徽省",
            "city":"合肥市",
            "district":"庐阳区",
            "address":"安徽省合肥市庐阳区海棠别院",
            "longitude":"117.268982",
            "latitude":"31.893364",
            "count":"-1"
        },
        {
            "province":"安徽省",
            "city":"合肥市",
            "district":"庐阳区",
            "address":"安徽省合肥市庐阳区四泉花园南区",
            "longitude":"117.253517",
            "latitude":"31.885321",
            "count":"-1"
        },
        {
            "province":"安徽省",
            "city":"合肥市",
            "district":"庐阳区",
            "address":"安徽省合肥市庐阳区土产日杂公司宿舍",
            "longitude":"117.258232",
            "latitude":"31.898203",
            "count":"-1"
        },
        {
            "province":"安徽省",
            "city":"合肥市",
            "district":"新站区",
            "address":"安徽省合肥市新站区合郢花园",
            "longitude":"117.373077",
            "latitude":"31.90399",
            "count":"-1"
        },
        {
            "province":"安徽省",
            "city":"合肥市",
            "district":"新站区",
            "address":"安徽省合肥市新站区园上园公寓楼",
            "longitude":"117.358513",
            "latitude":"31.887011",
            "count":"-1"
        },
        {
            "province":"安徽省",
            "city":"合肥市",
            "district":"新站区",
            "address":"安徽省合肥市新站区家天下3期",
            "longitude":"117.324829",
            "latitude":"31.893736",
            "count":"-1"
        },
        {
            "province":"安徽省",
            "city":"合肥市",
            "district":"新站区",
            "address":"安徽省合肥市新站区新海尚宸家园",
            "longitude":"117.342247",
            "latitude":"31.898899",
            "count":"-1"
        },
        {
            "province":"安徽省",
            "city":"合肥市",
            "district":"新站区",
            "address":"安徽省合肥市新站区昊天园小区",
            "longitude":"117.423203",
            "latitude":"31.933254",
            "count":"-1"
        },
        {
            "province":"安徽省",
            "city":"合肥市",
            "district":"新站区",
            "address":"安徽省合肥市新站区京商商贸城",
            "longitude":"117.343521",
            "latitude":"31.928022",
            "count":"-1"
        },
        {
            "province":"安徽省",
            "city":"合肥市",
            "district":"新站区",
            "address":"安徽省合肥市新站区张洼新村",
            "longitude":"117.319672",
            "latitude":"31.905239",
            "count":"-1"
        },
        {
            "province":"安徽省",
            "city":"合肥市",
            "district":"新站区",
            "address":"安徽省合肥市新站区金辉悦府小区",
            "longitude":"117.324478",
            "latitude":"31.91856",
            "count":"-1"
        },
        {
            "province":"安徽省",
            "city":"合肥市",
            "district":"新站区",
            "address":"安徽省合肥市新站区瑶海佳苑（兴华苑三期）",
            "longitude":"117.322212",
            "latitude":"31.9044",
            "count":"-1"
        },
        {
            "province":"安徽省",
            "city":"合肥市",
            "district":"瑶海区",
            "address":"安徽省合肥市瑶海区临泉花苑小区",
            "longitude":"117.304039",
            "latitude":"31.88673",
            "count":"-1"
        },
        {
            "province":"安徽省",
            "city":"合肥市",
            "district":"瑶海区",
            "address":"安徽省合肥市瑶海区元一名城",
            "longitude":"117.292686",
            "latitude":"31.890617",
            "count":"-1"
        },
        {
            "province":"安徽省",
            "city":"合肥市",
            "district":"瑶海区",
            "address":"安徽省合肥市瑶海区凤翔家园",
            "longitude":"117.321709",
            "latitude":"31.87384",
            "count":"-1"
        },
        {
            "province":"安徽省",
            "city":"合肥市",
            "district":"瑶海区",
            "address":"安徽省合肥市瑶海区华都城市花园",
            "longitude":"117.376839",
            "latitude":"31.86614",
            "count":"-1"
        },
        {
            "province":"安徽省",
            "city":"合肥市",
            "district":"瑶海区",
            "address":"安徽省合肥市瑶海区怡馨苑",
            "longitude":"117.30117",
            "latitude":"31.882",
            "count":"-1"
        },
        {
            "province":"安徽省",
            "city":"合肥市",
            "district":"瑶海区",
            "address":"安徽省合肥市瑶海区恒丰嘉园",
            "longitude":"117.324287",
            "latitude":"31.868891",
            "count":"-1"
        },
        {
            "province":"安徽省",
            "city":"合肥市",
            "district":"瑶海区",
            "address":"安徽省合肥市瑶海区恒大中央广场",
            "longitude":"117.298576",
            "latitude":"31.875879",
            "count":"-1"
        },
        {
            "province":"安徽省",
            "city":"合肥市",
            "district":"瑶海区",
            "address":"安徽省合肥市瑶海区斯瑞新景苑",
            "longitude":"117.367607",
            "latitude":"31.874729",
            "count":"-1"
        },
        {
            "province":"安徽省",
            "city":"合肥市",
            "district":"瑶海区",
            "address":"安徽省合肥市瑶海区新创益民家园",
            "longitude":"117.387802",
            "latitude":"31.86816",
            "count":"-1"
        },
        {
            "province":"安徽省",
            "city":"合肥市",
            "district":"瑶海区",
            "address":"安徽省合肥市瑶海区温莎国际广场",
            "longitude":"117.309425",
            "latitude":"31.874451",
            "count":"-1"
        },
        {
            "province":"安徽省",
            "city":"合肥市",
            "district":"瑶海区",
            "address":"安徽省合肥市瑶海区铜陵路工业锅炉厂宿舍",
            "longitude":"117.32357",
            "latitude":"31.869989",
            "count":"-1"
        },
        {
            "province":"安徽省",
            "city":"合肥市",
            "district":"瑶海区",
            "address":"安徽省合肥市瑶海区长江东路五里井17栋",
            "longitude":"117.328751",
            "latitude":"31.867077",
            "count":"-1"
        },
        {
            "province":"安徽省",
            "city":"合肥市",
            "district":"瑶海区",
            "address":"安徽省合肥市瑶海区芳邻家园",
            "longitude":"117.333656",
            "latitude":"31.873131",
            "count":"-1"
        },
        {
            "province":"安徽省",
            "city":"合肥市",
            "district":"瑶海区",
            "address":"安徽省合肥市瑶海区大兴镇合浦新村（恢复楼）",
            "longitude":"117.354279",
            "latitude":"31.86565",
            "count":"-1"
        },
        {
            "province":"安徽省",
            "city":"合肥市",
            "district":"瑶海区",
            "address":"安徽省合肥市瑶海区海洲景秀世家2期",
            "longitude":"117.36676",
            "latitude":"31.88011",
            "count":"-1"
        },
        {
            "province":"安徽省",
            "city":"合肥市",
            "district":"瑶海区",
            "address":"安徽省合肥市瑶海区马岗社区龙岗管委会宿舍楼",
            "longitude":"117.372261",
            "latitude":"31.864079",
            "count":"-1"
        },
        {
            "province":"安徽省",
            "city":"合肥市",
            "district":"肥东县",
            "address":"安徽省合肥市肥东县八斗镇王城社区",
            "longitude":"117.67775",
            "latitude":"32.139271",
            "count":"-1"
        },
        {
            "province":"安徽省",
            "city":"合肥市",
            "district":"肥东县",
            "address":"安徽省合肥市肥东县店埠镇光大居委会光大新村",
            "longitude":"117.453407",
            "latitude":"31.89065",
            "count":"-1"
        },
        {
            "province":"安徽省",
            "city":"合肥市",
            "district":"肥东县",
            "address":"安徽省合肥市肥东县店埠镇凯旋公馆",
            "longitude":"117.448624",
            "latitude":"31.889799",
            "count":"-1"
        },
        {
            "province":"安徽省",
            "city":"合肥市",
            "district":"肥东县",
            "address":"安徽省合肥市肥东县店埠镇和平社区汇景新城",
            "longitude":"117.461853",
            "latitude":"31.88685",
            "count":"-1"
        },
        {
            "province":"安徽省",
            "city":"合肥市",
            "district":"肥东县",
            "address":"安徽省合肥市肥东县店埠镇定光社区传桥组",
            "longitude":117.487596,
            "latitude":31.877176,
            "count":"-1"
        },
        {
            "province":"安徽省",
            "city":"合肥市",
            "district":"肥东县",
            "address":"安徽省合肥市肥东县店埠镇定光社区新农村小区",
            "longitude":"117.487785",
            "latitude":"31.877279",
            "count":"-1"
        },
        {
            "province":"安徽省",
            "city":"合肥市",
            "district":"肥东县",
            "address":"安徽省合肥市肥东县店埠镇新城社区新城家园",
            "longitude":"117.452271",
            "latitude":"31.86648",
            "count":"-1"
        },
        {
            "province":"安徽省",
            "city":"合肥市",
            "district":"肥东县",
            "address":"安徽省合肥市肥东县店埠镇镇南社区",
            "longitude":"117.469696",
            "latitude":"31.881382",
            "count":"-1"
        },
        {
            "province":"安徽省",
            "city":"合肥市",
            "district":"肥东县",
            "address":"安徽省合肥市肥东县店埠镇青春社区育红小学宿舍楼",
            "longitude":"117.471291",
            "latitude":"31.884501",
            "count":"-1"
        },
        {
            "province":"安徽省",
            "city":"合肥市",
            "district":"肥东县",
            "address":"安徽省合肥市肥东县牌坊回族满族乡民新村",
            "longitude":117.507352,
            "latitude":31.949791,
            "count":"-1"
        },
        {
            "province":"安徽省",
            "city":"合肥市",
            "district":"肥东县",
            "address":"安徽省合肥市肥东县石塘镇供销社宿舍",
            "longitude":"117.6334",
            "latitude":"31.93203",
            "count":"-1"
        },
        {
            "province":"安徽省",
            "city":"合肥市",
            "district":"肥东县",
            "address":"安徽省合肥市肥东县石塘镇新展社区",
            "longitude":117.597237,
            "latitude":31.881772,
            "count":"-1"
        },
        {
            "province":"安徽省",
            "city":"合肥市",
            "district":"肥东县",
            "address":"安徽省合肥市肥东县石塘镇龙城社区",
            "longitude":"117.567917",
            "latitude":"31.899361",
            "count":"-1"
        },
        {
            "province":"安徽省",
            "city":"合肥市",
            "district":"肥东县",
            "address":"安徽省合肥市肥东县陈大郢社区紫玉华府",
            "longitude":"117.420578",
            "latitude":"31.890209",
            "count":"-1"
        },
        {
            "province":"安徽省",
            "city":"合肥市",
            "district":"肥东县",
            "address":"安徽省合肥市肥东县马湖乡沙河村",
            "longitude":"117.846298",
            "latitude":"32.047058",
            "count":"-1"
        },
        {
            "province":"安徽省",
            "city":"合肥市",
            "district":"肥东县",
            "address":"安徽省合肥市肥东县马湖乡马湖社区",
            "longitude":"117.844467",
            "latitude":"32.06942",
            "count":"-1"
        },
        {
            "province":"安徽省",
            "city":"合肥市",
            "district":"肥东县",
            "address":"安徽省合肥市肥东县店埠镇星光嘉苑",
            "longitude":"117.466843",
            "latitude":"31.88942",
            "count":"-1"
        },
        {
            "province":"安徽省",
            "city":"合肥市",
            "district":"肥东县",
            "address":"安徽省合肥市肥东县店埠镇双桥新村",
            "longitude":"117.50486",
            "latitude":"31.862881",
            "count":"-1"
        },
        {
            "province":"安徽省",
            "city":"合肥市",
            "district":"肥西县",
            "address":"安徽省合肥市肥西县上派镇华邦万派城",
            "longitude":"117.164101",
            "latitude":"31.727461",
            "count":"-1"
        },
        {
            "province":"安徽省",
            "city":"合肥市",
            "district":"肥西县",
            "address":"安徽省合肥市肥西县上派镇韩圩村",
            "longitude":"117.195953",
            "latitude":"31.68487",
            "count":"-1"
        },
        {
            "province":"安徽省",
            "city":"合肥市",
            "district":"肥西县",
            "address":"安徽省合肥市肥西县桃花镇东冠繁华逸城",
            "longitude":"117.172684",
            "latitude":"31.78264",
            "count":"-1"
        },
        {
            "province":"安徽省",
            "city":"合肥市",
            "district":"肥西县",
            "address":"安徽省合肥市肥西县桃花镇信地华地城",
            "longitude":"117.1651",
            "latitude":"31.78064",
            "count":"-1"
        },
        {
            "province":"安徽省",
            "city":"合肥市",
            "district":"肥西县",
            "address":"安徽省合肥市肥西县铭传乡墩塘村",
            "longitude":"116.786743",
            "latitude":"31.761841",
            "count":"-1"
        },
        {
            "province":"安徽省",
            "city":"合肥市",
            "district":"肥西县",
            "address":"安徽省合肥市肥西县山南镇光明村",
            "longitude":"116.772598",
            "latitude":"31.672239",
            "count":"-1"
        },
        {
            "province":"安徽省",
            "city":"合肥市",
            "district":"肥西县",
            "address":"安徽省合肥市肥西县上派镇名邦中央公馆",
            "longitude":"117.159912",
            "latitude":"31.705099",
            "count":"-1"
        },
        {
            "province":"安徽省",
            "city":"合肥市",
            "district":"蜀山区",
            "address":"安徽省合肥市蜀山区中央美域A区",
            "longitude":"117.236572",
            "latitude":"31.86734",
            "count":"-1"
        },
        {
            "province":"安徽省",
            "city":"合肥市",
            "district":"蜀山区",
            "address":"安徽省合肥市蜀山区中铁青秀城",
            "longitude":"117.245049",
            "latitude":"31.8717",
            "count":"-1"
        },
        {
            "province":"安徽省",
            "city":"合肥市",
            "district":"蜀山区",
            "address":"安徽省合肥市蜀山区内森庄园",
            "longitude":"117.214027",
            "latitude":"31.815748",
            "count":"-1"
        },
        {
            "province":"安徽省",
            "city":"合肥市",
            "district":"蜀山区",
            "address":"安徽省合肥市蜀山区和谐家园（长丰南路）",
            "longitude":"117.246239",
            "latitude":"31.81955",
            "count":"-1"
        },
        {
            "province":"安徽省",
            "city":"合肥市",
            "district":"蜀山区",
            "address":"安徽省合肥市蜀山区天和园",
            "longitude":"117.21106",
            "latitude":"31.80793",
            "count":"-1"
        },
        {
            "province":"安徽省",
            "city":"合肥市",
            "district":"蜀山区",
            "address":"安徽省合肥市蜀山区当代花园",
            "longitude":"117.2239",
            "latitude":"31.8298",
            "count":"-1"
        },
        {
            "province":"安徽省",
            "city":"合肥市",
            "district":"蜀山区",
            "address":"安徽省合肥市蜀山区颐和阳光100小区",
            "longitude":"117.242233",
            "latitude":"31.857639",
            "count":"-1"
        },
        {
            "province":"安徽省",
            "city":"合肥市",
            "district":"蜀山区",
            "address":"安徽省合肥市蜀山区颐园世家",
            "longitude":"117.220543",
            "latitude":"31.799419",
            "count":"-1"
        },
        {
            "province":"安徽省",
            "city":"合肥市",
            "district":"蜀山区",
            "address":"安徽省合肥市蜀山区龙居山庄天龙居",
            "longitude":"117.241882",
            "latitude":"31.864996",
            "count":"-1"
        },
        {
            "province":"安徽省",
            "city":"合肥市",
            "district":"蜀山区",
            "address":"安徽省合肥市蜀山区安徽电力公司黄山路生活区",
            "longitude":"117.207726",
            "latitude":"31.864021",
            "count":"-1"
        },
        {
            "province":"安徽省",
            "city":"合肥市",
            "district":"蜀山区",
            "address":"安徽省合肥市蜀山区岳西新村B区",
            "longitude":"117.224106",
            "latitude":"31.85121",
            "count":"-1"
        },
        {
            "province":"安徽省",
            "city":"合肥市",
            "district":"蜀山区",
            "address":"安徽省合肥市蜀山区通和易居北苑",
            "longitude":"117.24855",
            "latitude":"31.84676",
            "count":"-1"
        },
        {
            "province":"安徽省",
            "city":"合肥市",
            "district":"蜀山区",
            "address":"安徽省合肥市蜀山区家家景园3期",
            "longitude":"117.229713",
            "latitude":"31.857969",
            "count":"-1"
        },
        {
            "province":"安徽省",
            "city":"合肥市",
            "district":"长丰县",
            "address":"安徽省合肥市长丰县岗集镇玉成明珠苑",
            "longitude":"117.191658",
            "latitude":"31.946278",
            "count":"-1"
        },
        {
            "province":"安徽省",
            "city":"合肥市",
            "district":"长丰县",
            "address":"安徽省合肥市长丰县阿奎利亚城品",
            "longitude":"117.259727",
            "latitude":"31.95619",
            "count":"-1"
        },
        {
            "province":"安徽省",
            "city":"合肥市",
            "district":"长丰县",
            "address":"安徽省合肥市长丰县下塘镇顾圩村",
            "longitude":"117.259727",
            "latitude":"32.200161",
            "count":"-1"
        },
        {
            "province":"安徽省",
            "city":"合肥市",
            "district":"长丰县",
            "address":"安徽省合肥市长丰县北城世纪城一期颐徽苑",
            "longitude":"117.244935",
            "latitude":"32.005156",
            "count":"-1"
        },
        {
            "province":"安徽省",
            "city":"合肥市",
            "district":"长丰县",
            "address":"安徽省合肥市长丰县北城明珠小区",
            "longitude":"117.260208",
            "latitude":"31.970671",
            "count":"-1"
        },
        {
            "province":"安徽省",
            "city":"合肥市",
            "district":"高新区",
            "address":"安徽省合肥市高新区岭湖墅",
            "longitude":"117.149162",
            "latitude":"31.823151",
            "count":"-1"
        },
        {
            "province":"安徽省",
            "city":"芜湖市",
            "district":"南陵县",
            "address":"安徽省芜湖市南陵县新世纪花园",
            "longitude":"118.34079",
            "latitude":"30.91469",
            "count":"1"
        },
        {
            "province":"安徽省",
            "city":"芜湖市",
            "district":"南陵县",
            "address":"安徽省芜湖市南陵县籍山镇东门大桥天禧楼小区",
            "longitude":118.346512,
            "latitude":30.921285,
            "count":"1"
        },
        {
            "province":"安徽省",
            "city":"芜湖市",
            "district":"弋江区",
            "address":"安徽省芜湖市弋江区中南街道江岸明珠",
            "longitude":"118.370056",
            "latitude":"31.316469",
            "count":"1"
        },
        {
            "province":"安徽省",
            "city":"芜湖市",
            "district":"弋江区",
            "address":"安徽省芜湖市弋江区南瑞街道江城国际瑞华苑",
            "longitude":"118.394119",
            "latitude":"31.301571",
            "count":"1"
        },
        {
            "province":"安徽省",
            "city":"芜湖市",
            "district":"弋江区",
            "address":"安徽省芜湖市弋江区江岸明珠小区",
            "longitude":"118.370056",
            "latitude":"31.316469",
            "count":"1"
        },
        {
            "province":"安徽省",
            "city":"芜湖市",
            "district":"无为市",
            "address":"安徽省芜湖市无为市严桥镇响山中学",
            "longitude":"117.798828",
            "latitude":"31.443069",
            "count":"1"
        },
        {
            "province":"安徽省",
            "city":"芜湖市",
            "district":"无为市",
            "address":"安徽省芜湖市无为市无城镇凤河路金河小区",
            "longitude":"117.90554",
            "latitude":"31.30776",
            "count":"1"
        },
        {
            "province":"安徽省",
            "city":"芜湖市",
            "district":"无为市",
            "address":"安徽省芜湖市无为市无城镇府苑小区",
            "longitude":"117.899757",
            "latitude":"31.305161",
            "count":"4"
        },
        {
            "province":"安徽省",
            "city":"芜湖市",
            "district":"无为市",
            "address":"安徽省芜湖市无为市陡沟镇凤凰桥社区薛巷自然村",
            "longitude":118.085966,
            "latitude":31.404517,
            "count":"1"
        },
        {
            "province":"安徽省",
            "city":"芜湖市",
            "district":"无为市",
            "address":"安徽省芜湖市无为市陡沟镇陡沟社区健博花园小区",
            "longitude":118.018349,
            "latitude":31.356446,
            "count":"1"
        },
        {
            "province":"安徽省",
            "city":"芜湖市",
            "district":"无为市",
            "address":"安徽省芜湖市无为市洪巷镇青岗行政村陈一自然村",
            "longitude":117.734048,
            "latitude":31.096405,
            "count":"2"
        },
        {
            "province":"安徽省",
            "city":"芜湖市",
            "district":"无为市",
            "address":"安徽省芜湖市无为市高沟镇健全行政村东湖自然村",
            "longitude":"117.925491",
            "latitude":"31.125076",
            "count":"1"
        },
        {
            "province":"安徽省",
            "city":"芜湖市",
            "district":"无为市",
            "address":"安徽省芜湖市无为市开城镇羊山行政村羊场自然村",
            "longitude":117.771267,
            "latitude":31.316503,
            "count":"1"
        },
        {
            "province":"安徽省",
            "city":"芜湖市",
            "district":"芜湖县",
            "address":"安徽省芜湖市芜湖县红杨镇红杨树社区六桥自然村",
            "longitude":118.547843,
            "latitude":31.042194,
            "count":"1"
        },
        {
            "province":"安徽省",
            "city":"芜湖市",
            "district":"镜湖区",
            "address":"安徽省芜湖市镜湖区七更点社区华盛小区",
            "longitude":"118.363792",
            "latitude":"31.326241",
            "count":"1"
        },
        {
            "province":"安徽省",
            "city":"芜湖市",
            "district":"镜湖区",
            "address":"安徽省芜湖市镜湖区凯旋社区绿地伊顿公馆",
            "longitude":"118.411118",
            "latitude":"31.330208",
            "count":"3"
        },
        {
            "province":"安徽省",
            "city":"芜湖市",
            "district":"镜湖区",
            "address":"安徽省芜湖市镜湖区文化路社区白金湾小区",
            "longitude":"118.386787",
            "latitude":"31.33835",
            "count":"1"
        },
        {
            "province":"安徽省",
            "city":"芜湖市",
            "district":"镜湖区",
            "address":"安徽省芜湖市镜湖区海南渡社区绿地6号地块C区",
            "longitude":"118.415482",
            "latitude":"31.32761",
            "count":"1"
        },
        {
            "province":"安徽省",
            "city":"芜湖市",
            "district":"鸠江区",
            "address":"安徽省芜湖市鸠江区清水街道金都檀宫小区",
            "longitude":"118.471642",
            "latitude":"31.330521",
            "count":"1"
        },
        {
            "province":"安徽省",
            "city":"芜湖市",
            "district":"鸠江区",
            "address":"安徽省芜湖市鸠江区龙山街道西梁山危化品锚地",
            "longitude":118.342355,
            "latitude":31.497528,
            "count":"1"
        },
        {
            "province":"安徽省",
            "city":"芜湖市",
            "district":"经开区",
            "address":"安徽省芜湖市经开区奇瑞BOBO城H区",
            "longitude":"118.397308",
            "latitude":"31.46122",
            "count":"1"
        },
        {
            "province":"安徽省",
            "city":"六安市",
            "district":"裕安区",
            "address":"安徽省六安市裕安区凯旋名门3号楼",
            "longitude":"116.473282",
            "latitude":"31.735291",
            "count":"-1"
        },
        {
            "province":"安徽省",
            "city":"六安市",
            "district":"裕安区",
            "address":"安徽省六安市裕安区华邦新华城",
            "longitude":"116.488112",
            "latitude":"31.753592",
            "count":"-1"
        },
        {
            "province":"安徽省",
            "city":"六安市",
            "district":"裕安区",
            "address":"安徽省六安市裕安区帝都豪园13栋",
            "longitude":"116.484831",
            "latitude":"31.740378",
            "count":"-1"
        },
        {
            "province":"安徽省",
            "city":"六安市",
            "district":"裕安区",
            "address":"安徽省六安市裕安区独山镇茶叶市场",
            "longitude":116.229826,
            "latitude":31.610867,
            "count":"-1"
        },
        {
            "province":"安徽省",
            "city":"六安市",
            "district":"裕安区",
            "address":"安徽省六安市裕安区狮子岗黄大路村",
            "longitude":116.270926,
            "latitude":31.711725,
            "count":"-1"
        },
        {
            "province":"安徽省",
            "city":"六安市",
            "district":"裕安区",
            "address":"安徽省六安市裕安区苏埠镇祝张路黄莲村岗桥组",
            "longitude":116.385509,
            "latitude":31.631645,
            "count":"-1"
        },
        {
            "province":"安徽省",
            "city":"六安市",
            "district":"裕安区",
            "address":"安徽省六安市裕安区西河口镇马林村",
            "longitude":116.136929,
            "latitude":31.935265,
            "count":"-1"
        },
        {
            "province":"安徽省",
            "city":"六安市",
            "district":"裕安区",
            "address":"安徽省六安市裕安区青山乡八字岗村汪冲组",
            "longitude":116.470584,
            "latitude":31.564574,
            "count":"-1"
        },
        {
            "province":"安徽省",
            "city":"六安市",
            "district":"裕安区",
            "address":"安徽省六安市裕安区西市街道帝都豪园小区",
            "longitude":"116.485519",
            "latitude":"31.740459",
            "count":"2"
        },
        {
            "province":"安徽省",
            "city":"六安市",
            "district":"金安区",
            "address":"安徽省六安市金安区中市街道前进社区浙东商贸城D区",
            "longitude":"116.49753",
            "latitude":"31.74611",
            "count":"-1"
        },
        {
            "province":"安徽省",
            "city":"六安市",
            "district":"金安区",
            "address":"安徽省六安市金安区孙岗镇五十铺村士坤组",
            "longitude":116.621473,
            "latitude":31.596334,
            "count":"-1"
        },
        {
            "province":"安徽省",
            "city":"六安市",
            "district":"金安区",
            "address":"安徽省六安市金安区椿树镇龙穴村张大郢组",
            "longitude":116.658477,
            "latitude":31.702483,
            "count":"-1"
        },
        {
            "province":"安徽省",
            "city":"六安市",
            "district":"金安区",
            "address":"安徽省六安市金安区清水河街道刘园社区海心沙小区",
            "longitude":"116.5069",
            "latitude":"31.77944",
            "count":"-1"
        },
        {
            "province":"安徽省",
            "city":"六安市",
            "district":"金安区",
            "address":"安徽省六安市金安区椿树镇",
            "longitude":"116.721687",
            "latitude":"31.687599",
            "count":"1"
        },
        {
            "province":"安徽省",
            "city":"六安市",
            "district":"金寨县",
            "address":"安徽省六安市金寨县关庙乡关庙村",
            "longitude":"115.498207",
            "latitude":"31.49868",
            "count":"-1"
        },
        {
            "province":"安徽省",
            "city":"六安市",
            "district":"金寨县",
            "address":"安徽省六安市金寨县南溪镇南溪村",
            "longitude":"115.640533",
            "latitude":"31.515394",
            "count":"-1"
        },
        {
            "province":"安徽省",
            "city":"六安市",
            "district":"金寨县",
            "address":"安徽省六安市金寨县吴家店镇街道",
            "longitude":"115.578339",
            "latitude":"31.283199",
            "count":"-1"
        },
        {
            "province":"安徽省",
            "city":"六安市",
            "district":"金寨县",
            "address":"安徽省六安市金寨县果子园乡姚冲村",
            "longitude":"115.645447",
            "latitude":"31.34622",
            "count":"-1"
        },
        {
            "province":"安徽省",
            "city":"六安市",
            "district":"金寨县",
            "address":"安徽省六安市金寨县梅山镇明逸城小区",
            "longitude":115.930724,
            "latitude":31.719572,
            "count":"-1"
        },
        {
            "province":"安徽省",
            "city":"六安市",
            "district":"金寨县",
            "address":"安徽省六安市金寨县梅山镇香港花园小区",
            "longitude":"115.940178",
            "latitude":"31.7222",
            "count":"-1"
        },
        {
            "province":"安徽省",
            "city":"六安市",
            "district":"金寨县",
            "address":"安徽省六安市金寨县汤汇镇豹迹岩村",
            "longitude":"115.581108",
            "latitude":"31.64352",
            "count":"-1"
        },
        {
            "province":"安徽省",
            "city":"六安市",
            "district":"金寨县",
            "address":"安徽省六安市金寨县铁冲乡街道",
            "longitude":115.681234,
            "latitude":31.744007,
            "count":"-1"
        },
        {
            "province":"安徽省",
            "city":"六安市",
            "district":"金寨县",
            "address":"安徽省六安市金寨县汤家汇镇",
            "longitude":"115.587952",
            "latitude":"31.609301",
            "count":"7"
        },
        {
            "province":"安徽省",
            "city":"六安市",
            "district":"霍山县",
            "address":"安徽省六安市霍山县佛子岭镇通水灌村",
            "longitude":"116.306358",
            "latitude":"31.3624",
            "count":"-1"
        },
        {
            "province":"安徽省",
            "city":"六安市",
            "district":"霍山县",
            "address":"安徽省六安市霍山县衡山镇上元街社区",
            "longitude":"116.316299",
            "latitude":"31.402969",
            "count":"-1"
        },
        {
            "province":"安徽省",
            "city":"六安市",
            "district":"霍山县",
            "address":"安徽省六安市霍山县衡山镇南岳村",
            "longitude":"116.31189",
            "latitude":"31.395321",
            "count":"-1"
        },
        {
            "province":"安徽省",
            "city":"六安市",
            "district":"霍山县",
            "address":"安徽省六安市霍山县衡山镇南潭社区",
            "longitude":"116.328957",
            "latitude":"31.40316",
            "count":"-1"
        },
        {
            "province":"安徽省",
            "city":"六安市",
            "district":"霍山县",
            "address":"安徽省六安市霍山县衡山镇和顺花园D区",
            "longitude":"116.316299",
            "latitude":"31.402969",
            "count":"-1"
        },
        {
            "province":"安徽省",
            "city":"六安市",
            "district":"霍山县",
            "address":"安徽省六安市霍山县衡山镇文峰社区",
            "longitude":"116.339005",
            "latitude":"31.397722",
            "count":"-1"
        },
        {
            "province":"安徽省",
            "city":"六安市",
            "district":"霍山县",
            "address":"安徽省六安市霍山县衡山镇荷香社区",
            "longitude":"116.332268",
            "latitude":"31.401733",
            "count":"-1"
        },
        {
            "province":"安徽省",
            "city":"六安市",
            "district":"霍山县",
            "address":"安徽省六安市霍山县衡山镇衡山社区",
            "longitude":"116.33297",
            "latitude":"31.39435",
            "count":"-1"
        },
        {
            "province":"安徽省",
            "city":"六安市",
            "district":"霍山县",
            "address":"安徽省六安市霍山县衡山镇西大街社区",
            "longitude":"116.323128",
            "latitude":"31.406321",
            "count":"-1"
        },
        {
            "province":"安徽省",
            "city":"六安市",
            "district":"霍山县",
            "address":"安徽省六安市霍山县黑石渡镇新店河村",
            "longitude":"116.227768",
            "latitude":"31.432659",
            "count":"-1"
        },
        {
            "province":"安徽省",
            "city":"六安市",
            "district":"霍山县",
            "address":"安徽省六安市霍山县与儿街镇儿街社区",
            "longitude":"116.44986",
            "latitude":"31.386",
            "count":"-1"
        },
        {
            "province":"安徽省",
            "city":"六安市",
            "district":"霍山县",
            "address":"安徽省六安市霍山县与儿街镇山王河村",
            "longitude":"116.398468",
            "latitude":"31.429562",
            "count":"-1"
        },
        {
            "province":"安徽省",
            "city":"六安市",
            "district":"霍山县",
            "address":"安徽省六安市霍山县与儿街镇",
            "longitude":"116.446907",
            "latitude":"31.38673",
            "count":"1"
        },
        {
            "province":"安徽省",
            "city":"六安市",
            "district":"霍山县",
            "address":"安徽省六安市霍山县佛子岭镇",
            "longitude":"116.25528",
            "latitude":"31.3601",
            "count":"2"
        },
        {
            "province":"安徽省",
            "city":"六安市",
            "district":"霍山县",
            "address":"安徽省六安市霍山县经济开发区",
            "longitude":"116.384804",
            "latitude":"31.424393",
            "count":"1"
        },
        {
            "province":"安徽省",
            "city":"六安市",
            "district":"霍山县",
            "address":"安徽省六安市霍山县衡山镇",
            "longitude":"116.316299",
            "latitude":"31.402969",
            "count":"3"
        },
        {
            "province":"安徽省",
            "city":"六安市",
            "district":"霍邱县",
            "address":"安徽省六安市霍邱县城关镇玉泉社区惠民小区",
            "longitude":"116.280357",
            "latitude":"32.338051",
            "count":"-1"
        },
        {
            "province":"安徽省",
            "city":"六安市",
            "district":"霍邱县",
            "address":"安徽省六安市霍邱县宋店乡留城寺村老庄组",
            "longitude":"116.2192",
            "latitude":"32.181019",
            "count":"-1"
        },
        {
            "province":"安徽省",
            "city":"六安市",
            "district":"霍邱县",
            "address":"安徽省六安市霍邱县开发区马圩村学田组",
            "longitude":"116.02655",
            "latitude":"32.07423",
            "count":"-1"
        },
        {
            "province":"安徽省",
            "city":"六安市",
            "district":"霍邱县",
            "address":"安徽省六安市霍邱县范桥镇刘庙村北下组",
            "longitude":"116.029572",
            "latitude":"32.447578",
            "count":"-1"
        },
        {
            "province":"安徽省",
            "city":"六安市",
            "district":"霍邱县",
            "address":"安徽省六安市霍邱县高塘镇新桥村岗头组",
            "longitude":"116.064636",
            "latitude":"32.384109",
            "count":"-1"
        },
        {
            "province":"安徽省",
            "city":"六安市",
            "district":"霍邱县",
            "address":"安徽省六安市霍邱县龙潭镇龙王庙村南楼组",
            "longitude":"115.952332",
            "latitude":"32.101681",
            "count":"-1"
        },
        {
            "province":"安徽省",
            "city":"六安市",
            "district":"霍邱县",
            "address":"安徽省六安市霍邱县龙潭镇",
            "longitude":"115.994057",
            "latitude":"32.193272",
            "count":"1"
        },
        {
            "province":"安徽省",
            "city":"安庆市",
            "district":"太湖县",
            "address":"安徽省安庆市太湖县小池镇中心村桥头组",
            "longitude":"116.429749",
            "latitude":"30.513041",
            "count":"1"
        },
        {
            "province":"安徽省",
            "city":"安庆市",
            "district":"太湖县",
            "address":"安徽省安庆市太湖县新仓镇金鸡村蔡榜组",
            "longitude":116.390705,
            "latitude":30.429075,
            "count":"-1"
        },
        {
            "province":"安徽省",
            "city":"安庆市",
            "district":"太湖县",
            "address":"安徽省安庆市太湖县晋熙镇天高财富广场",
            "longitude":116.293952,
            "latitude":30.449649,
            "count":"-1"
        },
        {
            "province":"安徽省",
            "city":"安庆市",
            "district":"宜秀区",
            "address":"安徽省安庆市宜秀区大龙山镇百华村何洼组",
            "longitude":117.008152,
            "latitude":30.626396,
            "count":"-1"
        },
        {
            "province":"安徽省",
            "city":"安庆市",
            "district":"宜秀区",
            "address":"安徽省安庆市宜秀区白泽湖乡大枫村大塘组",
            "longitude":"117.125908",
            "latitude":"30.612429",
            "count":"-1"
        },
        {
            "province":"安徽省",
            "city":"安庆市",
            "district":"宿松县",
            "address":"安徽省安庆市宿松县佐坝乡环湖村桂咀组",
            "longitude":116.103888,
            "latitude":29.999941,
            "count":"-1"
        },
        {
            "province":"安徽省",
            "city":"安庆市",
            "district":"宿松县",
            "address":"安徽省安庆市宿松县佐坝乡碧岭村徐岭组",
            "longitude":"116.104149",
            "latitude":"30.110281",
            "count":"-1"
        },
        {
            "province":"安徽省",
            "city":"安庆市",
            "district":"宿松县",
            "address":"安徽省安庆市宿松县北浴乡马厂村曹湾组",
            "longitude":115.95224,
            "latitude":30.380562,
            "count":"-1"
        },
        {
            "province":"安徽省",
            "city":"安庆市",
            "district":"宿松县",
            "address":"安徽省安庆市宿松县复兴镇套口村五社组",
            "longitude":"116.536499",
            "latitude":"29.906719",
            "count":"-1"
        },
        {
            "province":"安徽省",
            "city":"安庆市",
            "district":"宿松县",
            "address":"安徽省安庆市宿松县孚玉镇光明社区棉麻新居小区",
            "longitude":"116.117973",
            "latitude":"30.164869",
            "count":"-1"
        },
        {
            "province":"安徽省",
            "city":"安庆市",
            "district":"宿松县",
            "address":"安徽省安庆市宿松县汇口镇团结村新埂组",
            "longitude":"116.269852",
            "latitude":"29.864571",
            "count":"-1"
        },
        {
            "province":"安徽省",
            "city":"安庆市",
            "district":"宿松县",
            "address":"安徽省安庆市宿松县破凉镇雪镇村阳田组",
            "longitude":"116.170883",
            "latitude":"30.226471",
            "count":"-1"
        },
        {
            "province":"安徽省",
            "city":"安庆市",
            "district":"宿松县",
            "address":"安徽省安庆市宿松县长铺镇马塘村余西组",
            "longitude":"116.184357",
            "latitude":"30.179251",
            "count":"-1"
        },
        {
            "province":"安徽省",
            "city":"安庆市",
            "district":"宿松县",
            "address":"安徽省安庆市宿松县孚玉镇梨园新村小区",
            "longitude":"116.126556",
            "latitude":"30.153099",
            "count":"1"
        },
        {
            "province":"安徽省",
            "city":"安庆市",
            "district":"岳西县",
            "address":"安徽省安庆市岳西县冶溪镇琥珀村琥珀组",
            "longitude":"115.911377",
            "latitude":"30.739679",
            "count":"-1"
        },
        {
            "province":"安徽省",
            "city":"安庆市",
            "district":"岳西县",
            "address":"安徽省安庆市岳西县古坊乡下坊村宁畈组",
            "longitude":"115.944267",
            "latitude":"30.87841",
            "count":"-1"
        },
        {
            "province":"安徽省",
            "city":"安庆市",
            "district":"岳西县",
            "address":"安徽省安庆市岳西县天堂镇城东社区小城宝邸小区",
            "longitude":"116.37159",
            "latitude":"30.85018",
            "count":"-1"
        },
        {
            "province":"安徽省",
            "city":"安庆市",
            "district":"岳西县",
            "address":"安徽省安庆市岳西县天堂镇阳光小区",
            "longitude":"116.369392",
            "latitude":"30.84519",
            "count":"-1"
        },
        {
            "province":"安徽省",
            "city":"安庆市",
            "district":"岳西县",
            "address":"安徽省安庆市岳西县店前镇店前村李屋组",
            "longitude":116.017989,
            "latitude":30.726853,
            "count":"-1"
        },
        {
            "province":"安徽省",
            "city":"安庆市",
            "district":"岳西县",
            "address":"安徽省安庆市岳西县河图镇皖源村河湾组",
            "longitude":"115.988853",
            "latitude":"30.91498",
            "count":"-1"
        },
        {
            "province":"安徽省",
            "city":"安庆市",
            "district":"岳西县",
            "address":"安徽省安庆市岳西县白帽镇余河村粮油组",
            "longitude":115.913881,
            "latitude":30.811904,
            "count":"-1"
        },
        {
            "province":"安徽省",
            "city":"安庆市",
            "district":"怀宁县",
            "address":"安徽省安庆市怀宁县凉亭乡双湖村庙兴组",
            "longitude":"116.940315",
            "latitude":"30.733",
            "count":"-1"
        },
        {
            "province":"安徽省",
            "city":"安庆市",
            "district":"怀宁县",
            "address":"安徽省安庆市怀宁县凉亭乡双湖村珠林组",
            "longitude":116.940339,
            "latitude":30.732938,
            "count":"-1"
        },
        {
            "province":"安徽省",
            "city":"安庆市",
            "district":"怀宁县",
            "address":"安徽省安庆市怀宁县马庙镇鹿苑村双桂组",
            "longitude":116.729433,
            "latitude":30.737736,
            "count":"-1"
        },
        {
            "province":"安徽省",
            "city":"安庆市",
            "district":"怀宁县",
            "address":"安徽省安庆市怀宁县黄墩镇高楼村团结组",
            "longitude":"116.774071",
            "latitude":"30.61282",
            "count":"-1"
        },
        {
            "province":"安徽省",
            "city":"安庆市",
            "district":"怀宁县",
            "address":"安徽省安庆市怀宁县高河镇黄梅阁小区",
            "longitude":116.841476,
            "latitude":30.734455,
            "count":"1"
        },
        {
            "province":"安徽省",
            "city":"安庆市",
            "district":"怀宁县",
            "address":"安徽省安庆市怀宁县石牌镇广丰村新建组",
            "longitude":"116.70359",
            "latitude":"30.403151",
            "count":"4"
        },
        {
            "province":"安徽省",
            "city":"安庆市",
            "district":"怀宁县",
            "address":"安徽省安庆市怀宁县平山镇鸣凤村胜天组",
            "longitude":"116.652206",
            "latitude":"30.4627",
            "count":"1"
        },
        {
            "province":"安徽省",
            "city":"安庆市",
            "district":"望江县",
            "address":"安徽省安庆市望江县华阳镇计渡村石闸三组",
            "longitude":116.714848,
            "latitude":30.086632,
            "count":"-1"
        },
        {
            "province":"安徽省",
            "city":"安庆市",
            "district":"望江县",
            "address":"安徽省安庆市望江县赛口镇兴龙村",
            "longitude":"116.787109",
            "latitude":"30.351545",
            "count":"-1"
        },
        {
            "province":"安徽省",
            "city":"安庆市",
            "district":"望江县",
            "address":"安徽省安庆市望江县长岭镇后埠村同东屋",
            "longitude":116.562373,
            "latitude":30.252064,
            "count":"-1"
        },
        {
            "province":"安徽省",
            "city":"安庆市",
            "district":"桐城市",
            "address":"安徽省安庆市桐城市双港镇双港镇民畈村新民组",
            "longitude":116.913445,
            "latitude":30.797812,
            "count":"-1"
        },
        {
            "province":"安徽省",
            "city":"安庆市",
            "district":"桐城市",
            "address":"安徽省安庆市桐城市双港镇潘赛村西瓜组",
            "longitude":"116.998283",
            "latitude":"30.80192",
            "count":"-1"
        },
        {
            "province":"安徽省",
            "city":"安庆市",
            "district":"桐城市",
            "address":"安徽省安庆市桐城市文昌街道公园社区粮食局宿舍",
            "longitude":"116.952034",
            "latitude":"31.054087",
            "count":"-1"
        },
        {
            "province":"安徽省",
            "city":"安庆市",
            "district":"桐城市",
            "address":"安徽省安庆市桐城市文昌街道石河村大隔组",
            "longitude":"116.946793",
            "latitude":"31.030359",
            "count":"-1"
        },
        {
            "province":"安徽省",
            "city":"安庆市",
            "district":"桐城市",
            "address":"安徽省安庆市桐城市新渡镇双墩村合胜组",
            "longitude":"116.845917",
            "latitude":"30.817221",
            "count":"-1"
        },
        {
            "province":"安徽省",
            "city":"安庆市",
            "district":"桐城市",
            "address":"安徽省安庆市桐城市新渡镇罗潭村罗潭组",
            "longitude":"116.889099",
            "latitude":"30.849789",
            "count":"-1"
        },
        {
            "province":"安徽省",
            "city":"安庆市",
            "district":"桐城市",
            "address":"安徽省安庆市桐城市范岗镇棋盘岭村张老屋队",
            "longitude":116.916796,
            "latitude":30.933427,
            "count":"-1"
        },
        {
            "province":"安徽省",
            "city":"安庆市",
            "district":"桐城市",
            "address":"安徽省安庆市桐城市龙眠街道碧桂园小区",
            "longitude":"116.972771",
            "latitude":"31.06056",
            "count":"-1"
        },
        {
            "province":"安徽省",
            "city":"安庆市",
            "district":"桐城市",
            "address":"安徽省安庆市桐城市龙眠街道长生社区三隔组",
            "longitude":"116.972771",
            "latitude":"31.06056",
            "count":"-1"
        },
        {
            "province":"安徽省",
            "city":"安庆市",
            "district":"桐城市",
            "address":"安徽省安庆市桐城市龙眠街道阅城国际小区",
            "longitude":"116.965897",
            "latitude":"31.044289",
            "count":"-1"
        },
        {
            "province":"安徽省",
            "city":"安庆市",
            "district":"桐城市",
            "address":"安徽省安庆市桐城市龙眠街道黄燕村横排组",
            "longitude":"116.888329",
            "latitude":"31.104891",
            "count":"-1"
        },
        {
            "province":"安徽省",
            "city":"安庆市",
            "district":"桐城市",
            "address":"安徽省安庆市桐城市双港镇民畈村新民组",
            "longitude":116.913445,
            "latitude":30.797798,
            "count":"1"
        },
        {
            "province":"安徽省",
            "city":"安庆市",
            "district":"桐城市",
            "address":"安徽省安庆市桐城市新渡镇永久村程西组",
            "longitude":"116.892921",
            "latitude":"30.92424",
            "count":"1"
        },
        {
            "province":"安徽省",
            "city":"安庆市",
            "district":"桐城市",
            "address":"安徽省安庆市桐城市银杏花园小区",
            "longitude":"116.943764",
            "latitude":"30.819349",
            "count":"1"
        },
        {
            "province":"安徽省",
            "city":"安庆市",
            "district":"潜山市",
            "address":"安徽省安庆市潜山市梅城镇水岸江南B区",
            "longitude":"116.584976",
            "latitude":"30.636589",
            "count":"-1"
        },
        {
            "province":"安徽省",
            "city":"安庆市",
            "district":"潜山市",
            "address":"安徽省安庆市潜山市源潭镇田墩新村",
            "longitude":"116.680588",
            "latitude":"30.89422",
            "count":"-1"
        },
        {
            "province":"安徽省",
            "city":"安庆市",
            "district":"经开区",
            "address":"安徽省安庆市经开区菱北街道菱建小区",
            "longitude":"117.066719",
            "latitude":"30.53948",
            "count":"-1"
        },
        {
            "province":"安徽省",
            "city":"安庆市",
            "district":"经开区",
            "address":"安徽省安庆市经开区菱北街道香樟里小区",
            "longitude":"117.060242",
            "latitude":"30.53582",
            "count":"-1"
        },
        {
            "province":"安徽省",
            "city":"安庆市",
            "district":"经开区",
            "address":"安徽省安庆市经开区景湖嘉苑小区",
            "longitude":"117.073341",
            "latitude":"30.53089",
            "count":"2"
        },
        {
            "province":"安徽省",
            "city":"安庆市",
            "district":"迎江区",
            "address":"安徽省安庆市迎江区华中路街道御景国际小区",
            "longitude":"117.053482",
            "latitude":"30.51236",
            "count":"-1"
        },
        {
            "province":"安徽省",
            "city":"安庆市",
            "district":"迎江区",
            "address":"安徽省安庆市迎江区滨江街道碧桂园1号公园小区",
            "longitude":"117.043861",
            "latitude":"30.507849",
            "count":"-1"
        },
        {
            "province":"安徽省",
            "city":"安庆市",
            "district":"大观区",
            "address":"安徽省安庆市大观区关岳庙街二监宿舍小区",
            "longitude":"117.03791",
            "latitude":"30.511669",
            "count":"2"
        },
        {
            "province":"安徽省",
            "city":"蚌埠市",
            "district":"淮上区",
            "address":"安徽省蚌埠市淮上区吴小街镇通城紫都10栋",
            "longitude":"117.394226",
            "latitude":"32.96909",
            "count":"1"
        },
        {
            "province":"安徽省",
            "city":"蚌埠市",
            "district":"淮上区",
            "address":"安徽省蚌埠市淮上区小蚌埠镇外滩花园20栋",
            "longitude":"117.365273",
            "latitude":"32.967941",
            "count":"1"
        },
        {
            "province":"安徽省",
            "city":"蚌埠市",
            "district":"淮上区",
            "address":"安徽省蚌埠市淮上区小蚌埠镇荷花园小区一期A5号楼",
            "longitude":"117.37923",
            "latitude":"32.97194",
            "count":"1"
        },
        {
            "province":"安徽省",
            "city":"蚌埠市",
            "district":"淮上区",
            "address":"安徽省蚌埠市淮上区梅桥镇淝南村",
            "longitude":"117.299858",
            "latitude":"33.033421",
            "count":"1"
        },
        {
            "province":"安徽省",
            "city":"蚌埠市",
            "district":"淮上区",
            "address":"安徽省蚌埠市淮上区淮滨街道上河时代北区",
            "longitude":"117.366173",
            "latitude":"32.969009",
            "count":"1"
        },
        {
            "province":"安徽省",
            "city":"蚌埠市",
            "district":"淮上区",
            "address":"安徽省蚌埠市淮上区淮滨街道上河时代北区20栋",
            "longitude":"117.366173",
            "latitude":"32.969009",
            "count":"1"
        },
        {
            "province":"安徽省",
            "city":"蚌埠市",
            "district":"淮上区",
            "address":"安徽省蚌埠市淮上区小蚌埠镇荷花园1期12栋",
            "longitude":"117.376045",
            "latitude":"32.970314",
            "count":"1"
        },
        {
            "province":"安徽省",
            "city":"蚌埠市",
            "district":"禹会区",
            "address":"安徽省蚌埠市禹会区张公山街道张公山二村对面郊区机关宿舍楼",
            "longitude":"117.331947",
            "latitude":"32.925079",
            "count":"1"
        },
        {
            "province":"安徽省",
            "city":"蚌埠市",
            "district":"禹会区",
            "address":"安徽省蚌埠市禹会区张公山街道张公山北门制钉厂",
            "longitude":117.340236,
            "latitude":32.92477,
            "count":"1"
        },
        {
            "province":"安徽省",
            "city":"蚌埠市",
            "district":"禹会区",
            "address":"安徽省蚌埠市禹会区纬四街道胜利公寓2栋",
            "longitude":"117.348953",
            "latitude":"32.938129",
            "count":"1"
        },
        {
            "province":"安徽省",
            "city":"蚌埠市",
            "district":"禹会区",
            "address":"安徽省蚌埠市禹会区钓鱼台街道锦绣香堤B区13栋",
            "longitude":"117.34844",
            "latitude":"32.91294",
            "count":"2"
        },
        {
            "province":"安徽省",
            "city":"蚌埠市",
            "district":"禹会区",
            "address":"安徽省蚌埠市禹会区钓鱼台街道喜盈门二期",
            "longitude":"117.348862",
            "latitude":"32.913181",
            "count":"1"
        },
        {
            "province":"安徽省",
            "city":"蚌埠市",
            "district":"禹会区",
            "address":"安徽省蚌埠市禹会区张公山派出所旁",
            "longitude":"117.333023",
            "latitude":"32.92635",
            "count":"1"
        },
        {
            "province":"安徽省",
            "city":"蚌埠市",
            "district":"禹会区",
            "address":"安徽省蚌埠市禹会区张公山街道张公山4村419栋",
            "longitude":"117.328888",
            "latitude":"32.921459",
            "count":"2"
        },
        {
            "province":"安徽省",
            "city":"蚌埠市",
            "district":"禹会区",
            "address":"安徽省蚌埠市禹会区张公山街道张公山六村613栋",
            "longitude":"117.334274",
            "latitude":"32.922749",
            "count":"1"
        },
        {
            "province":"安徽省",
            "city":"蚌埠市",
            "district":"禹会区",
            "address":"安徽省蚌埠市禹会区朝阳街道怡康新都1栋",
            "longitude":"117.348862",
            "latitude":"32.928459",
            "count":"1"
        },
        {
            "province":"安徽省",
            "city":"蚌埠市",
            "district":"禹会区",
            "address":"安徽省蚌埠市禹会区马城镇胡圩村",
            "longitude":"117.210197",
            "latitude":"32.864189",
            "count":"2"
        },
        {
            "province":"安徽省",
            "city":"蚌埠市",
            "district":"蚌山区",
            "address":"安徽省蚌埠市蚌山区宏业村街道万达广场C区3号楼",
            "longitude":"117.359962",
            "latitude":"32.919636",
            "count":"1"
        },
        {
            "province":"安徽省",
            "city":"蚌埠市",
            "district":"蚌山区",
            "address":"安徽省蚌埠市蚌山区青年街道同乐园小区8号楼",
            "longitude":"117.362511",
            "latitude":"32.942032",
            "count":"1"
        },
        {
            "province":"安徽省",
            "city":"蚌埠市",
            "district":"蚌山区",
            "address":"安徽省蚌埠市蚌山区青年街道大舞台小区1栋",
            "longitude":"117.360939",
            "latitude":"32.94009",
            "count":"1"
        },
        {
            "province":"安徽省",
            "city":"蚌埠市",
            "district":"蚌山区",
            "address":"安徽省蚌埠市蚌山区黄庄街道新天地小区",
            "longitude":"117.358551",
            "latitude":"32.934551",
            "count":"1"
        },
        {
            "province":"安徽省",
            "city":"蚌埠市",
            "district":"蚌山区",
            "address":"安徽省蚌埠市蚌山区黄庄街道水游城B区7栋",
            "longitude":"117.396446",
            "latitude":"32.919155",
            "count":"1"
        },
        {
            "province":"安徽省",
            "city":"蚌埠市",
            "district":"蚌山区",
            "address":"安徽省蚌埠市蚌山区青年街道华利街9栋",
            "longitude":"117.365189",
            "latitude":"32.944221",
            "count":"1"
        },
        {
            "province":"安徽省",
            "city":"蚌埠市",
            "district":"蚌山区",
            "address":"安徽省蚌埠市蚌山区黄庄街道丰泽园小区4栋",
            "longitude":"117.357536",
            "latitude":"32.929668",
            "count":"1"
        },
        {
            "province":"安徽省",
            "city":"蚌埠市",
            "district":"龙子湖区",
            "address":"安徽省蚌埠市龙子湖区东升街道东方新天地小区18栋",
            "longitude":"117.384521",
            "latitude":"32.948978",
            "count":"1"
        },
        {
            "province":"安徽省",
            "city":"蚌埠市",
            "district":"龙子湖区",
            "address":"安徽省蚌埠市龙子湖区延安街道隆华小区2栋",
            "longitude":"117.373947",
            "latitude":"32.940353",
            "count":"1"
        },
        {
            "province":"安徽省",
            "city":"蚌埠市",
            "district":"龙子湖区",
            "address":"安徽省蚌埠市龙子湖区治淮街道长淮路270号水科新楼",
            "longitude":"117.376091",
            "latitude":"32.951801",
            "count":"1"
        },
        {
            "province":"安徽省",
            "city":"蚌埠市",
            "district":"龙子湖区",
            "address":"安徽省蚌埠市龙子湖区解放街道广厦小区2栋",
            "longitude":"117.389587",
            "latitude":"32.947708",
            "count":"1"
        },
        {
            "province":"安徽省",
            "city":"蚌埠市",
            "district":"龙子湖区",
            "address":"安徽省蚌埠市龙子湖区东升街道东方新天地",
            "longitude":"117.384521",
            "latitude":"32.948978",
            "count":"1"
        },
        {
            "province":"安徽省",
            "city":"蚌埠市",
            "district":"龙子湖区",
            "address":"安徽省蚌埠市龙子湖区东升街道交通路186号",
            "longitude":"117.3777",
            "latitude":"32.9488",
            "count":"1"
        },
        {
            "province":"安徽省",
            "city":"蚌埠市",
            "district":"龙子湖区",
            "address":"安徽省蚌埠市龙子湖区延安街道中铁都市家园",
            "longitude":"117.386421",
            "latitude":"32.94083",
            "count":"1"
        },
        {
            "province":"安徽省",
            "city":"蚌埠市",
            "district":"龙子湖区",
            "address":"安徽省蚌埠市龙子湖区延安街道延安一村",
            "longitude":"117.371269",
            "latitude":"32.949169",
            "count":"1"
        },
        {
            "province":"安徽省",
            "city":"蚌埠市",
            "district":"龙子湖区",
            "address":"安徽省蚌埠市龙子湖区治淮街道东苑小区",
            "longitude":"117.371567",
            "latitude":"32.9459",
            "count":"1"
        },
        {
            "province":"安徽省",
            "city":"蚌埠市",
            "district":"龙子湖区",
            "address":"安徽省蚌埠市龙子湖区治淮街道延安三区",
            "longitude":"117.374878",
            "latitude":"32.948799",
            "count":"1"
        },
        {
            "province":"安徽省",
            "city":"蚌埠市",
            "district":"龙子湖区",
            "address":"安徽省蚌埠市龙子湖区治淮街道淮河路854号",
            "longitude":"117.3741",
            "latitude":"32.94468",
            "count":"1"
        },
        {
            "province":"安徽省",
            "city":"蚌埠市",
            "district":"龙子湖区",
            "address":"安徽省蚌埠市龙子湖区解放街道广厦小区",
            "longitude":"117.389587",
            "latitude":"32.947708",
            "count":"2"
        },
        {
            "province":"安徽省",
            "city":"蚌埠市",
            "district":"龙子湖区",
            "address":"安徽省蚌埠市龙子湖区解放街道金润名都",
            "longitude":"117.392487",
            "latitude":"32.94854",
            "count":"2"
        },
        {
            "province":"安徽省",
            "city":"蚌埠市",
            "district":"龙子湖区",
            "address":"安徽省蚌埠市龙子湖区东升街道凤阳东路480号东单元",
            "longitude":"117.38519",
            "latitude":"32.94523",
            "count":"2"
        },
        {
            "province":"安徽省",
            "city":"蚌埠市",
            "district":"龙子湖区",
            "address":"安徽省蚌埠市龙子湖区东风街道淮河路854号2单元",
            "longitude":"117.3741",
            "latitude":"32.94468",
            "count":"1"
        },
        {
            "province":"安徽省",
            "city":"蚌埠市",
            "district":"龙子湖区",
            "address":"安徽省蚌埠市龙子湖区解放街道金润名都7栋",
            "longitude":"117.392487",
            "latitude":"32.94854",
            "count":"1"
        },
        {
            "province":"安徽省",
            "city":"蚌埠市",
            "district":"怀远县",
            "address":"安徽省蚌埠市怀远县徐圩乡钞湖村郑庄组",
            "longitude":116.787381,
            "latitude":33.072518,
            "count":"1"
        },
        {
            "province":"安徽省",
            "city":"蚌埠市",
            "district":"经开区",
            "address":"安徽省蚌埠市经开区淮河社区新新尚层",
            "longitude":"117.373077",
            "latitude":"32.933041",
            "count":"1"
        },
        {
            "province":"安徽省",
            "city":"蚌埠市",
            "district":"经开区",
            "address":"安徽省蚌埠市经开区淮河社区阿卡碧水湾小区",
            "longitude":"117.368279",
            "latitude":"32.924091",
            "count":"2"
        },
        {
            "province":"安徽省",
            "city":"蚌埠市",
            "district":"经开区",
            "address":"安徽省蚌埠市经开区淮河社区香堤荣府",
            "longitude":"117.385529",
            "latitude":"32.936581",
            "count":"1"
        },
        {
            "province":"安徽省",
            "city":"蚌埠市",
            "district":"经开区",
            "address":"安徽省蚌埠市经开区湖滨社区恒大御景湾",
            "longitude":"117.398888",
            "latitude":"32.912521",
            "count":"1"
        },
        {
            "province":"安徽省",
            "city":"蚌埠市",
            "district":"经开区",
            "address":"安徽省蚌埠市经开区湖滨社区湖畔花都",
            "longitude":"117.377411",
            "latitude":"32.909981",
            "count":"1"
        },
        {
            "province":"安徽省",
            "city":"蚌埠市",
            "district":"经开区",
            "address":"安徽省蚌埠市经开区胜利街道大塘名门",
            "longitude":"117.373238",
            "latitude":"32.93829",
            "count":"1"
        },
        {
            "province":"安徽省",
            "city":"蚌埠市",
            "district":"经开区",
            "address":"安徽省蚌埠市经开区胜利街道金融小区",
            "longitude":"117.378212",
            "latitude":"32.936897",
            "count":"1"
        },
        {
            "province":"安徽省",
            "city":"蚌埠市",
            "district":"经开区",
            "address":"安徽省蚌埠市经开区胜利街道华景家园",
            "longitude":"117.361687",
            "latitude":"32.933941",
            "count":"1"
        },